{ "facet_groups": [ { "facets": [ { "count": 5, "name": "Springfield", "path": "Springfield", "state": "displayed" }, { "count": 4, "name": "Lakewood", "path": "Lakewood", "state": "displayed" }, { "count": 4, "name": "Lancaster", "path": "Lancaster", "state": "displayed" }, { "count": 3, "name": "Albany", "path": "Albany", "state": "displayed" }, { "count": 3, "name": "Bloomington", "path": "Bloomington", "state": "displayed" }, { "count": 3, "name": "Columbus", "path": "Columbus", "state": "displayed" }, { "count": 3, "name": "Concord", "path": "Concord", "state": "displayed" }, { "count": 3, "name": "Lawrence", "path": "Lawrence", "state": "displayed" }, { "count": 3, "name": "Newark", "path": "Newark", "state": "displayed" }, { "count": 2, "name": "Alexandria", "path": "Alexandria", "state": "displayed" }, { "count": 2, "name": "Apple Valley", "path": "Apple Valley", "state": "displayed" }, { "count": 2, "name": "Auburn", "path": "Auburn", "state": "displayed" }, { "count": 2, "name": "Aurora", "path": "Aurora", "state": "displayed" }, { "count": 2, "name": "Bartlett", "path": "Bartlett", "state": "displayed" }, { "count": 2, "name": "Beaumont", "path": "Beaumont", "state": "displayed" }, { "count": 2, "name": "Bellevue", "path": "Bellevue", "state": "displayed" }, { "count": 2, "name": "Brentwood", "path": "Brentwood", "state": "displayed" }, { "count": 2, "name": "Burlington", "path": "Burlington", "state": "displayed" }, { "count": 2, "name": "Charleston", "path": "Charleston", "state": "displayed" }, { "count": 2, "name": "Cleveland", "path": "Cleveland", "state": "displayed" }, { "count": 2, "name": "Clovis", "path": "Clovis", "state": "displayed" }, { "count": 2, "name": "Columbia", "path": "Columbia", "state": "displayed" }, { "count": 2, "name": "Danville", "path": "Danville", "state": "displayed" }, { "count": 2, "name": "Decatur", "path": "Decatur", "state": "displayed" }, { "count": 2, "name": "Dublin", "path": "Dublin", "state": "displayed" }, { "count": 2, "name": "Everett", "path": "Everett", "state": "displayed" }, { "count": 2, "name": "Fairfield", "path": "Fairfield", "state": "displayed" }, { "count": 2, "name": "Fayetteville", "path": "Fayetteville", "state": "displayed" }, { "count": 2, "name": "Florence", "path": "Florence", "state": "displayed" }, { "count": 2, "name": "Glendale", "path": "Glendale", "state": "displayed" }, { "count": 2, "name": "Greenville", "path": "Greenville", "state": "displayed" }, { "count": 2, "name": "Huntsville", "path": "Huntsville", "state": "displayed" }, { "count": 2, "name": "Jackson", "path": "Jackson", "state": "displayed" }, { "count": 2, "name": "Jacksonville", "path": "Jacksonville", "state": "displayed" }, { "count": 2, "name": "Kansas City", "path": "Kansas City", "state": "displayed" }, { "count": 2, "name": "Lafayette", "path": "Lafayette", "state": "displayed" }, { "count": 2, "name": "Lincoln", "path": "Lincoln", "state": "displayed" }, { "count": 2, "name": "Madison", "path": "Madison", "state": "displayed" }, { "count": 2, "name": "Mansfield", "path": "Mansfield", "state": "displayed" }, { "count": 2, "name": "Medford", "path": "Medford", "state": "displayed" }, { "count": 2, "name": "Meridian", "path": "Meridian", "state": "displayed" }, { "count": 2, "name": "Middletown", "path": "Middletown", "state": "displayed" }, { "count": 2, "name": "Midland", "path": "Midland", "state": "displayed" }, { "count": 2, "name": "Norwalk", "path": "Norwalk", "state": "displayed" }, { "count": 2, "name": "Pasadena", "path": "Pasadena", "state": "displayed" }, { "count": 2, "name": "Peoria", "path": "Peoria", "state": "displayed" }, { "count": 2, "name": "Plainfield", "path": "Plainfield", "state": "displayed" }, { "count": 2, "name": "Portland", "path": "Portland", "state": "displayed" }, { "count": 2, "name": "Quincy", "path": "Quincy", "state": "displayed" }, { "count": 2, "name": "Richmond", "path": "Richmond", "state": "displayed" }, { "count": 2, "name": "Rochester", "path": "Rochester", "state": "displayed" }, { "count": 2, "name": "Roseville", "path": "Roseville", "state": "displayed" }, { "count": 2, "name": "Roswell", "path": "Roswell", "state": "displayed" }, { "count": 2, "name": "Salem", "path": "Salem", "state": "displayed" }, { "count": 2, "name": "San Marcos", "path": "San Marcos", "state": "displayed" }, { "count": 2, "name": "Smyrna", "path": "Smyrna", "state": "displayed" }, { "count": 2, "name": "St. Cloud", "path": "St. Cloud", "state": "displayed" }, { "count": 2, "name": "Troy", "path": "Troy", "state": "displayed" }, { "count": 2, "name": "Union City", "path": "Union City", "state": "displayed" }, { "count": 2, "name": "Warren", "path": "Warren", "state": "displayed" }, { "count": 2, "name": "Westminster", "path": "Westminster", "state": "displayed" }, { "count": 2, "name": "Wilmington", "path": "Wilmington", "state": "displayed" }, { "count": 1, "name": "Abilene", "path": "Abilene", "state": "displayed" }, { "count": 1, "name": "Addison", "path": "Addison", "state": "displayed" }, { "count": 1, "name": "Akron", "path": "Akron", "state": "displayed" }, { "count": 1, "name": "Alameda", "path": "Alameda", "state": "displayed" }, { "count": 1, "name": "Albuquerque", "path": "Albuquerque", "state": "displayed" }, { "count": 1, "name": "Alhambra", "path": "Alhambra", "state": "displayed" }, { "count": 1, "name": "Aliso Viejo", "path": "Aliso Viejo", "state": "displayed" }, { "count": 1, "name": "Allen", "path": "Allen", "state": "displayed" }, { "count": 1, "name": "Allentown", "path": "Allentown", "state": "displayed" }, { "count": 1, "name": "Alpharetta", "path": "Alpharetta", "state": "displayed" }, { "count": 1, "name": "Altamonte Springs", "path": "Altamonte Springs", "state": "displayed" }, { "count": 1, "name": "Altoona", "path": "Altoona", "state": "displayed" }, { "count": 1, "name": "Amarillo", "path": "Amarillo", "state": "displayed" }, { "count": 1, "name": "Ames", "path": "Ames", "state": "displayed" }, { "count": 1, "name": "Anaheim", "path": "Anaheim", "state": "displayed" }, { "count": 1, "name": "Anchorage", "path": "Anchorage", "state": "displayed" }, { "count": 1, "name": "Anderson", "path": "Anderson", "state": "displayed" }, { "count": 1, "name": "Ankeny", "path": "Ankeny", "state": "displayed" }, { "count": 1, "name": "Ann Arbor", "path": "Ann Arbor", "state": "displayed" }, { "count": 1, "name": "Annapolis", "path": "Annapolis", "state": "displayed" }, { "count": 1, "name": "Antioch", "path": "Antioch", "state": "displayed" }, { "count": 1, "name": "Apache Junction", "path": "Apache Junction", "state": "displayed" }, { "count": 1, "name": "Apex", "path": "Apex", "state": "displayed" }, { "count": 1, "name": "Apopka", "path": "Apopka", "state": "displayed" }, { "count": 1, "name": "Appleton", "path": "Appleton", "state": "displayed" }, { "count": 1, "name": "Arcadia", "path": "Arcadia", "state": "displayed" }, { "count": 1, "name": "Arlington", "path": "Arlington", "state": "displayed" }, { "count": 1, "name": "Arlington Heights", "path": "Arlington Heights", "state": "displayed" }, { "count": 1, "name": "Arvada", "path": "Arvada", "state": "displayed" }, { "count": 1, "name": "Asheville", "path": "Asheville", "state": "displayed" }, { "count": 1, "name": "Athens-Clarke County", "path": "Athens-Clarke County", "state": "displayed" }, { "count": 1, "name": "Atlanta", "path": "Atlanta", "state": "displayed" }, { "count": 1, "name": "Atlantic City", "path": "Atlantic City", "state": "displayed" }, { "count": 1, "name": "Attleboro", "path": "Attleboro", "state": "displayed" }, { "count": 1, "name": "Augusta-Richmond County", "path": "Augusta-Richmond County", "state": "displayed" }, { "count": 1, "name": "Austin", "path": "Austin", "state": "displayed" }, { "count": 1, "name": "Aventura", "path": "Aventura", "state": "displayed" }, { "count": 1, "name": "Avondale", "path": "Avondale", "state": "displayed" } ], "name": "city" }, { "facets": [ { "count": 212, "name": "California", "path": "California", "state": "displayed" }, { "count": 83, "name": "Texas", "path": "Texas", "state": "displayed" }, { "count": 73, "name": "Florida", "path": "Florida", "state": "displayed" }, { "count": 52, "name": "Illinois", "path": "Illinois", "state": "displayed" }, { "count": 36, "name": "Massachusetts", "path": "Massachusetts", "state": "displayed" }, { "count": 33, "name": "Ohio", "path": "Ohio", "state": "displayed" }, { "count": 31, "name": "Michigan", "path": "Michigan", "state": "displayed" }, { "count": 28, "name": "Washington", "path": "Washington", "state": "displayed" }, { "count": 25, "name": "Arizona", "path": "Arizona", "state": "displayed" }, { "count": 24, "name": "Minnesota", "path": "Minnesota", "state": "displayed" }, { "count": 22, "name": "New Jersey", "path": "New Jersey", "state": "displayed" }, { "count": 22, "name": "North Carolina", "path": "North Carolina", "state": "displayed" }, { "count": 21, "name": "Colorado", "path": "Colorado", "state": "displayed" }, { "count": 21, "name": "Indiana", "path": "Indiana", "state": "displayed" }, { "count": 20, "name": "Wisconsin", "path": "Wisconsin", "state": "displayed" }, { "count": 19, "name": "Utah", "path": "Utah", "state": "displayed" }, { "count": 18, "name": "Georgia", "path": "Georgia", "state": "displayed" }, { "count": 17, "name": "New York", "path": "New York", "state": "displayed" }, { "count": 17, "name": "Tennessee", "path": "Tennessee", "state": "displayed" }, { "count": 17, "name": "Virginia", "path": "Virginia", "state": "displayed" }, { "count": 16, "name": "Missouri", "path": "Missouri", "state": "displayed" }, { "count": 15, "name": "Connecticut", "path": "Connecticut", "state": "displayed" }, { "count": 14, "name": "Oregon", "path": "Oregon", "state": "displayed" }, { "count": 13, "name": "Iowa", "path": "Iowa", "state": "displayed" }, { "count": 13, "name": "Pennsylvania", "path": "Pennsylvania", "state": "displayed" }, { "count": 12, "name": "Alabama", "path": "Alabama", "state": "displayed" }, { "count": 12, "name": "South Carolina", "path": "South Carolina", "state": "displayed" }, { "count": 11, "name": "Kansas", "path": "Kansas", "state": "displayed" }, { "count": 11, "name": "Oklahoma", "path": "Oklahoma", "state": "displayed" }, { "count": 10, "name": "Arkansas", "path": "Arkansas", "state": "displayed" }, { "count": 9, "name": "Louisiana", "path": "Louisiana", "state": "displayed" }, { "count": 8, "name": "Idaho", "path": "Idaho", "state": "displayed" }, { "count": 7, "name": "Maryland", "path": "Maryland", "state": "displayed" }, { "count": 7, "name": "New Mexico", "path": "New Mexico", "state": "displayed" }, { "count": 6, "name": "Mississippi", "path": "Mississippi", "state": "displayed" }, { "count": 6, "name": "Nevada", "path": "Nevada", "state": "displayed" }, { "count": 6, "name": "Rhode Island", "path": "Rhode Island", "state": "displayed" }, { "count": 5, "name": "Kentucky", "path": "Kentucky", "state": "displayed" }, { "count": 4, "name": "Montana", "path": "Montana", "state": "displayed" }, { "count": 4, "name": "Nebraska", "path": "Nebraska", "state": "displayed" }, { "count": 4, "name": "North Dakota", "path": "North Dakota", "state": "displayed" }, { "count": 3, "name": "New Hampshire", "path": "New Hampshire", "state": "displayed" }, { "count": 2, "name": "Delaware", "path": "Delaware", "state": "displayed" }, { "count": 2, "name": "South Dakota", "path": "South Dakota", "state": "displayed" }, { "count": 2, "name": "West Virginia", "path": "West Virginia", "state": "displayed" }, { "count": 2, "name": "Wyoming", "path": "Wyoming", "state": "displayed" }, { "count": 1, "name": "Alaska", "path": "Alaska", "state": "displayed" }, { "count": 1, "name": "District of Columbia", "path": "District of Columbia", "state": "displayed" }, { "count": 1, "name": "Hawaii", "path": "Hawaii", "state": "displayed" }, { "count": 1, "name": "Maine", "path": "Maine", "state": "displayed" }, { "count": 1, "name": "Vermont", "path": "Vermont", "state": "displayed" } ], "name": "state" } ], "nhits": 1000, "parameters": { "dataset": [ "1000-largest-us-cities-by-population-with-geographic-coordinates" ], "facet": [ "city", "state" ], "format": "json", "rows": 10, "timezone": "UTC" }, "records": [ { "datasetid": "1000-largest-us-cities-by-population-with-geographic-coordinates", "fields": { "city": "South San Francisco", "coordinates": [ 37.654656, -122.4077498 ], "growth_from_2000_to_2013": 9.1, "population": 66174, "rank": 522, "state": "California" }, "geometry": { "coordinates": [ -122.4077498, 37.654656 ], "type": "Point" }, "record_timestamp": "2017-06-01T14:40:33+00:00", "recordid": "5ce7a9aa87f003a5af134718daffe9154c06ab72" }, { "datasetid": "1000-largest-us-cities-by-population-with-geographic-coordinates", "fields": { "city": "Aliso Viejo", "coordinates": [ 33.5676842, -117.7256083 ], "growth_from_2000_to_2013": 25.4, "population": 50175, "rank": 741, "state": "California" }, "geometry": { "coordinates": [ -117.7256083, 33.5676842 ], "type": "Point" }, "record_timestamp": "2017-06-01T14:40:33+00:00", "recordid": "37a246ed053d87aa5a74c8145e9fc6c3ee54122e" }, { "datasetid": "1000-largest-us-cities-by-population-with-geographic-coordinates", "fields": { "city": "Rapid City", "coordinates": [ 44.0805434, -103.2310149 ], "growth_from_2000_to_2013": 17.9, "population": 70812, "rank": 479, "state": "South Dakota" }, "geometry": { "coordinates": [ -103.2310149, 44.0805434 ], "type": "Point" }, "record_timestamp": "2017-06-01T14:40:33+00:00", "recordid": "f22004941155deb6a11fd13802f3dce6c325b437" }, { "datasetid": "1000-largest-us-cities-by-population-with-geographic-coordinates", "fields": { "city": "Coon Rapids", "coordinates": [ 45.1732394, -93.3030063 ], "growth_from_2000_to_2013": 0.6, "population": 62103, "rank": 563, "state": "Minnesota" }, "geometry": { "coordinates": [ -93.3030063, 45.1732394 ], "type": "Point" }, "record_timestamp": "2017-06-01T14:40:33+00:00", "recordid": "6818c83a039365d486affc9b87a9f0b867aab1f1" }, { "datasetid": "1000-largest-us-cities-by-population-with-geographic-coordinates", "fields": { "city": "Malden", "coordinates": [ 42.4250964, -71.066163 ], "growth_from_2000_to_2013": 7.4, "population": 60509, "rank": 585, "state": "Massachusetts" }, "geometry": { "coordinates": [ -71.066163, 42.4250964 ], "type": "Point" }, "record_timestamp": "2017-06-01T14:40:33+00:00", "recordid": "acf330287d9b58204e1f232cc63429df12501668" }, { "datasetid": "1000-largest-us-cities-by-population-with-geographic-coordinates", "fields": { "city": "Noblesville", "coordinates": [ 40.0455917, -86.0085955 ], "growth_from_2000_to_2013": 88.1, "population": 56540, "rank": 644, "state": "Indiana" }, "geometry": { "coordinates": [ -86.0085955, 40.0455917 ], "type": "Point" }, "record_timestamp": "2017-06-01T14:40:33+00:00", "recordid": "de45634dfbed8f66a363162292f13d2fdefd711d" }, { "datasetid": "1000-largest-us-cities-by-population-with-geographic-coordinates", "fields": { "city": "Delray Beach", "coordinates": [ 26.4614625, -80.0728201 ], "growth_from_2000_to_2013": 6.1, "population": 64072, "rank": 543, "state": "Florida" }, "geometry": { "coordinates": [ -80.0728201, 26.4614625 ], "type": "Point" }, "record_timestamp": "2017-06-01T14:40:33+00:00", "recordid": "251492835c9dbb047e303f93131504663f1d26f6" }, { "datasetid": "1000-largest-us-cities-by-population-with-geographic-coordinates", "fields": { "city": "Wellington", "coordinates": [ 26.6617635, -80.2683571 ], "growth_from_2000_to_2013": 55.0, "population": 60202, "rank": 588, "state": "Florida" }, "geometry": { "coordinates": [ -80.2683571, 26.6617635 ], "type": "Point" }, "record_timestamp": "2017-06-01T14:40:33+00:00", "recordid": "fa6ea6fac45fd677d7531c783b27621ed6132847" }, { "datasetid": "1000-largest-us-cities-by-population-with-geographic-coordinates", "fields": { "city": "Florissant", "coordinates": [ 38.789217, -90.322614 ], "growth_from_2000_to_2013": -2.8, "population": 52363, "rank": 703, "state": "Missouri" }, "geometry": { "coordinates": [ -90.322614, 38.789217 ], "type": "Point" }, "record_timestamp": "2017-06-01T14:40:33+00:00", "recordid": "16bbb24239d1047c32d3ea5c1025c512747e06bc" }, { "datasetid": "1000-largest-us-cities-by-population-with-geographic-coordinates", "fields": { "city": "Youngstown", "coordinates": [ 41.0997803, -80.6495194 ], "growth_from_2000_to_2013": -20.2, "population": 65184, "rank": 532, "state": "Ohio" }, "geometry": { "coordinates": [ -80.6495194, 41.0997803 ], "type": "Point" }, "record_timestamp": "2017-06-01T14:40:33+00:00", "recordid": "de89fe6f987d9d6413d376141fb1eedb4f609cc9" } ] }
